{
  "type": "search_bbox",
  "params": {
    "lat1": 34.984834,
    "lon1": 135.755682,
    "lat2": 35.677553,
    "lon2": 139.766322,
    "category": "cafe",
    "bbox": [
      33.085415562522456,
      135.00822559521083,
      37.57697143747754,
      140.5137784047892
    ]
  },
  "result": {
    "midpoint": [
      35.3311935,
      137.76100200000002
    ],
    "recommendations": [
      {
        "id": 259964052,
        "name": "スターバックス",
        "category": "cafe",
        "lat": 35.684236,
        "lon": 139.7390476
      },
      {
        "id": 259964064,
        "name": "Unnamed",
        "category": "cafe",
        "lat": 35.6815144,
        "lon": 139.7438874
      },
      {
        "id": 260132096,
        "name": "タリーズコーヒー",
        "category": "cafe",
        "lat": 35.6046586,
        "lon": 140.1034471
      },
      {
        "id": 274057182,
        "name": "珈琲店　再願",
        "category": "cafe",
        "lat": 35.024421,
        "lon": 135.7963664
      },
      {
        "id": 275605844,
        "name": "珈琲館",
        "category": "cafe",
        "lat": 35.7482853,
        "lon": 139.7196284
      },
      {
        "id": 277836382,
        "name": "スターバックス",
        "category": "cafe",
        "lat": 35.7018499,
        "lon": 139.7424458
      },
      {
        "id": 279456434,
        "name": "mimiLotus tea shop",
        "category": "cafe",
        "lat": 35.3166207,
        "lon": 139.5502888
      },
      {
        "id": 288088533,
        "name": "茶緒",
        "category": "cafe",
        "lat": 35.5638333,
        "lon": 140.156143
      },
      {
        "id": 288631389,
        "name": "ドトールコーヒーショップ",
        "category": "cafe",
        "lat": 35.5502369,
        "lon": 140.1729795
      },
      {
        "id": 289280738,
        "name": "スターバックス",
        "category": "cafe",
        "lat": 34.7816786,
        "lon": 137.6079482
      },
      {
        "id": 293577206,
        "name": "スターバックス",
        "category": "cafe",
        "lat": 35.4700099,
        "lon": 139.3404555
      },
      {
        "id": 294069871,
        "name": "Pappelburg",
        "category": "cafe",
        "lat": 35.6205194,
        "lon": 139.3411424
      },
      {
        "id": 295394438,
        "name": "ドトールコーヒーショップ",
        "category": "cafe",
        "lat": 35.6812934,
        "lon": 139.6981229
      },
      {
        "id": 298924336,
        "name": "Books and Cafe",
        "category": "cafe",
        "lat": 35.9047728,
        "lon": 139.6223778
      },
      {
        "id": 299215846,
        "name": "スターバックス",
        "category": "cafe",
        "lat": 35.8932231,
        "lon": 139.631147
      },
      {
        "id": 300562771,
        "name": "スターバックス",
        "category": "cafe",
        "lat": 35.9055952,
        "lon": 139.621507
      },
      {
        "id": 304805570,
        "name": "自家焙煎珈琲豆 「ルンバミーア」",
        "category": "cafe",
        "lat": 35.6749577,
        "lon": 139.7124612
      },
      {
        "id": 309414346,
        "name": "ドトールコーヒーショップ",
        "category": "cafe",
        "lat": 35.9329732,
        "lon": 139.7787042
      },
      {
        "id": 339896274,
        "name": "Unnamed",
        "category": "cafe",
        "lat": 35.4240119,
        "lon": 139.6570072
      },
      {
        "id": 339896780,
        "name": "Unnamed",
        "category": "cafe",
        "lat": 35.4251222,
        "lon": 139.6606588
      },
      {
        "id": 393075631,
        "name": "エクセルシオール",
        "category": "cafe",
        "lat": 35.6439454,
        "lon": 139.7486585
      },
      {
        "id": 401948235,
        "name": "コーヒー軽食チェスカ",
        "category": "cafe",
        "lat": 35.5541666,
        "lon": 139.7409292
      },
      {
        "id": 401948251,
        "name": "カフェ・ベローチェ",
        "category": "cafe",
        "lat": 35.5525352,
        "lon": 139.7405711
      },
      {
        "id": 401950840,
        "name": "ドトールコーヒーショップ",
        "category": "cafe",
        "lat": 35.5521292,
        "lon": 139.7409686
      },
      {
        "id": 418991911,
        "name": "鶴ヶ城喫茶",
        "category": "cafe",
        "lat": 37.4881538,
        "lon": 139.9292863
      },
      {
        "id": 418991912,
        "name": "茶室麟閣",
        "category": "cafe",
        "lat": 37.486923,
        "lon": 139.9308047
      },
      {
        "id": 423763976,
        "name": "本丸茶屋",
        "category": "cafe",
        "lat": 37.489154,
        "lon": 139.9313027
      },
      {
        "id": 426872284,
        "name": "Dimple",
        "category": "cafe",
        "lat": 34.7197695,
        "lon": 135.4244277
      },
      {
        "id": 426872482,
        "name": "Unnamed",
        "category": "cafe",
        "lat": 34.7216,
        "lon": 135.4250528
      },
      {
        "id": 426872642,
        "name": "River",
        "category": "cafe",
        "lat": 34.719437,
        "lon": 135.4242683
      },
      {
        "id": 426872739,
        "name": "喫茶エルム",
        "category": "cafe",
        "lat": 34.7172817,
        "lon": 135.4266545
      },
      {
        "id": 427886910,
        "name": "attic room YASUKUNI-GAIEN/cafe&dining",
        "category": "cafe",
        "lat": 35.6947455,
        "lon": 139.74549
      },
      {
        "id": 428013491,
        "name": "CAT'S CRADLE",
        "category": "cafe",
        "lat": 35.708607,
        "lon": 139.7222682
      },
      {
        "id": 428022820,
        "name": "ビレン",
        "category": "cafe",
        "lat": 35.7085991,
        "lon": 139.7225562
      },
      {
        "id": 428219211,
        "name": "風の杜",
        "category": "cafe",
        "lat": 35.323995,
        "lon": 139.5547689
      },
      {
        "id": 428219213,
        "name": "Unnamed",
        "category": "cafe",
        "lat": 35.3241554,
        "lon": 139.5565861
      },
      {
        "id": 428219214,
        "name": "Unnamed",
        "category": "cafe",
        "lat": 35.3249938,
        "lon": 139.5561727
      },
      {
        "id": 429706628,
        "name": "スターバックス",
        "category": "cafe",
        "lat": 35.6690479,
        "lon": 139.6500268
      },
      {
        "id": 429848057,
        "name": "悟空",
        "category": "cafe",
        "lat": 35.4430995,
        "lon": 139.6482159
      },
      {
        "id": 430316971,
        "name": "ドトールコーヒーショップ",
        "category": "cafe",
        "lat": 35.5384517,
        "lon": 139.4458572
      },
      {
        "id": 436379588,
        "name": "季まま亭",
        "category": "cafe",
        "lat": 34.7794509,
        "lon": 139.363812
      },
      {
        "id": 457662055,
        "name": "Unnamed",
        "category": "cafe",
        "lat": 35.7444824,
        "lon": 139.8118264
      },
      {
        "id": 461575408,
        "name": "珈琲館茶考",
        "category": "cafe",
        "lat": 34.6807384,
        "lon": 135.4859908
      },
      {
        "id": 503840938,
        "name": "コーヒーハウス ツタヤ",
        "category": "cafe",
        "lat": 34.7808312,
        "lon": 135.7880785
      },
      {
        "id": 506041260,
        "name": "マスカット",
        "category": "cafe",
        "lat": 35.3791614,
        "lon": 136.2681741
      },
      {
        "id": 506041320,
        "name": "珈琲館",
        "category": "cafe",
        "lat": 35.3815245,
        "lon": 136.2858503
      },
      {
        "id": 506186242,
        "name": "芋甚",
        "category": "cafe",
        "lat": 35.7202072,
        "lon": 139.7636211
      },
      {
        "id": 506186252,
        "name": "喫茶・ギャラリー　りんごや",
        "category": "cafe",
        "lat": 35.7196021,
        "lon": 139.7646513
      },
      {
        "id": 506186253,
        "name": "NaCaSa",
        "category": "cafe",
        "lat": 35.7197603,
        "lon": 139.7648584
      },
      {
        "id": 506214936,
        "name": "カフェ・コパン",
        "category": "cafe",
        "lat": 35.720447,
        "lon": 139.7649404
      },
      {
        "id": 506214949,
        "name": "Couzt Cafe",
        "category": "cafe",
        "lat": 35.720653,
        "lon": 139.7655874
      },
      {
        "id": 506214983,
        "name": "やなか珈琲店",
        "category": "cafe",
        "lat": 35.7268789,
        "lon": 139.7647679
      },
      {
        "id": 508409153,
        "name": "Unnamed",
        "category": "cafe",
        "lat": 35.6960429,
        "lon": 139.7750057
      },
      {
        "id": 517736453,
        "name": "Seattle's Best Coffee",
        "category": "cafe",
        "lat": 34.690881,
        "lon": 135.4985468
      },
      {
        "id": 518262174,
        "name": "Forest",
        "category": "cafe",
        "lat": 35.4413466,
        "lon": 135.3294164
      },
      {
        "id": 518452418,
        "name": "ツウィン (Twin)",
        "category": "cafe",
        "lat": 35.781494,
        "lon": 139.8999954
      },
      {
        "id": 519696798,
        "name": "スターバックス",
        "category": "cafe",
        "lat": 35.6630487,
        "lon": 139.667211
      },
      {
        "id": 524222507,
        "name": "Casa Oriente",
        "category": "cafe",
        "lat": 35.4114216,
        "lon": 135.1947542
      },
      {
        "id": 525094895,
        "name": "スターバックス",
        "category": "cafe",
        "lat": 35.1226656,
        "lon": 135.9188208
      },
      {
        "id": 538376358,
        "name": "World Coffee",
        "category": "cafe",
        "lat": 35.0294728,
        "lon": 135.7912924
      },
      {
        "id": 540807268,
        "name": "たちばな書店蒲田店",
        "category": "cafe",
        "lat": 35.5640336,
        "lon": 139.7157299
      },
      {
        "id": 549654421,
        "name": "イタリアントマト",
        "category": "cafe",
        "lat": 35.659449,
        "lon": 139.686303
      },
      {
        "id": 552686304,
        "name": "まとい",
        "category": "cafe",
        "lat": 35.7173569,
        "lon": 139.813897
      },
      {
        "id": 571446876,
        "name": "ドトールコーヒーショップ",
        "category": "cafe",
        "lat": 35.8414569,
        "lon": 139.8976174
      },
      {
        "id": 576872362,
        "name": "Cafe Hatopoppo",
        "category": "cafe",
        "lat": 35.690629,
        "lon": 139.743881
      },
      {
        "id": 580366621,
        "name": "カフェ・ド・クリエ",
        "category": "cafe",
        "lat": 35.1743294,
        "lon": 136.9000893
      },
      {
        "id": 580793694,
        "name": "カフェ・ベローチェ",
        "category": "cafe",
        "lat": 35.6874265,
        "lon": 139.7425804
      },
      {
        "id": 581011627,
        "name": "珈琲館",
        "category": "cafe",
        "lat": 35.6876468,
        "lon": 139.7425487
      },
      {
        "id": 582969399,
        "name": "A&A認定ベクターワークスカフェジャパン",
        "category": "cafe",
        "lat": 35.7010661,
        "lon": 139.759867
      },
      {
        "id": 585164417,
        "name": "カフェ・ベローチェ",
        "category": "cafe",
        "lat": 35.6695915,
        "lon": 139.7653106
      },
      {
        "id": 594692485,
        "name": "CoffeeHouse 潤",
        "category": "cafe",
        "lat": 35.7901116,
        "lon": 139.9224868
      },
      {
        "id": 598504042,
        "name": "茶所　ひとやすみ(一休)",
        "category": "cafe",
        "lat": 35.5898484,
        "lon": 139.4980975
      },
      {
        "id": 599435071,
        "name": "カフェ・ベローチェ",
        "category": "cafe",
        "lat": 35.7526948,
        "lon": 139.7100099
      },
      {
        "id": 599435137,
        "name": "モリバコーヒー 板橋仲宿店",
        "category": "cafe",
        "lat": 35.754993,
        "lon": 139.7090461
      },
      {
        "id": 599541465,
        "name": "スターバックス",
        "category": "cafe",
        "lat": 35.7001644,
        "lon": 139.7618745
      },
      {
        "id": 599920271,
        "name": "こけし屋",
        "category": "cafe",
        "lat": 35.7034111,
        "lon": 139.6005208
      },
      {
        "id": 601840000,
        "name": "カフェ・ベローチェ",
        "category": "cafe",
        "lat": 34.987043,
        "lon": 135.7572705
      },
      {
        "id": 602389953,
        "name": "コメダ珈琲店",
        "category": "cafe",
        "lat": 35.0918859,
        "lon": 136.9788279
      },
      {
        "id": 603133272,
        "name": "スターバックス",
        "category": "cafe",
        "lat": 35.0091609,
        "lon": 135.7712032
      },
      {
        "id": 610345262,
        "name": "Unnamed",
        "category": "cafe",
        "lat": 35.1242087,
        "lon": 137.0914158
      },
      {
        "id": 610345346,
        "name": "Be-Gin",
        "category": "cafe",
        "lat": 35.1258349,
        "lon": 137.0907336
      },
      {
        "id": 610797322,
        "name": "Push Pull",
        "category": "cafe",
        "lat": 35.6346264,
        "lon": 139.5891136
      },
      {
        "id": 632359862,
        "name": "一番亭 (Ichiban Tei)",
        "category": "cafe",
        "lat": 35.5147897,
        "lon": 139.4182791
      },
      {
        "id": 634790280,
        "name": "Cafe FIRST",
        "category": "cafe",
        "lat": 35.6597024,
        "lon": 139.7432472
      },
      {
        "id": 654587980,
        "name": "スターバックス",
        "category": "cafe",
        "lat": 35.6869316,
        "lon": 139.781525
      },
      {
        "id": 654593051,
        "name": "ドトールコーヒーショップ",
        "category": "cafe",
        "lat": 35.687511,
        "lon": 139.778414
      },
      {
        "id": 665516568,
        "name": "Unnamed",
        "category": "cafe",
        "lat": 35.2102803,
        "lon": 137.087132
      },
      {
        "id": 671845701,
        "name": "Ayers Rock",
        "category": "cafe",
        "lat": 35.5948526,
        "lon": 139.4584066
      },
      {
        "id": 676692672,
        "name": "ノア",
        "category": "cafe",
        "lat": 35.7324907,
        "lon": 139.5999287
      },
      {
        "id": 679639748,
        "name": "スターバックス",
        "category": "cafe",
        "lat": 35.6630838,
        "lon": 139.7447165
      },
      {
        "id": 679639750,
        "name": "ドトールコーヒーショップ",
        "category": "cafe",
        "lat": 35.6628262,
        "lon": 139.7462074
      },
      {
        "id": 691449457,
        "name": "カナルカフェ",
        "category": "cafe",
        "lat": 35.7002854,
        "lon": 139.7428114
      },
      {
        "id": 692764851,
        "name": "エクセルシオール カフェ",
        "category": "cafe",
        "lat": 35.6999854,
        "lon": 139.7623512
      },
      {
        "id": 695152416,
        "name": "ドトールコーヒーショップ",
        "category": "cafe",
        "lat": 35.6466022,
        "lon": 139.7091404
      },
      {
        "id": 697381329,
        "name": "スターバックス",
        "category": "cafe",
        "lat": 34.6651079,
        "lon": 135.5019449
      },
      {
        "id": 700848186,
        "name": "スターバックス",
        "category": "cafe",
        "lat": 35.5216192,
        "lon": 139.6301272
      },
      {
        "id": 701818213,
        "name": "スターバックス",
        "category": "cafe",
        "lat": 35.6670002,
        "lon": 139.7067806
      },
      {
        "id": 705132059,
        "name": "スプーンハウス",
        "category": "cafe",
        "lat": 35.6671874,
        "lon": 139.6494595
      },
      {
        "id": 706052933,
        "name": "プロペラカフェ",
        "category": "cafe",
        "lat": 35.6696029,
        "lon": 139.5300477
      },
      {
        "id": 711278000,
        "name": "杏's cafe",
        "category": "cafe",
        "lat": 35.7233858,
        "lon": 139.5139859
      },
      {
        "id": 727340234,
        "name": "カフェ・ベローチェ",
        "category": "cafe",
        "lat": 35.655786,
        "lon": 139.7043997
      },
      {
        "id": 728435710,
        "name": "ドトールコーヒーショップ",
        "category": "cafe",
        "lat": 35.6559902,
        "lon": 139.7045379
      },
      {
        "id": 732207833,
        "name": "カフェ・ド・クリエ",
        "category": "cafe",
        "lat": 35.6561014,
        "lon": 139.6980894
      },
      {
        "id": 735116718,
        "name": "ドトールコーヒーショップ",
        "category": "cafe",
        "lat": 35.5811574,
        "lon": 139.6423067
      },
      {
        "id": 736620182,
        "name": "フリアン",
        "category": "cafe",
        "lat": 35.3129257,
        "lon": 135.5554314
      },
      {
        "id": 746540168,
        "name": "ドトールコーヒーショップ",
        "category": "cafe",
        "lat": 35.7412061,
        "lon": 139.5021712
      },
      {
        "id": 755783056,
        "name": "cerisier",
        "category": "cafe",
        "lat": 35.813059,
        "lon": 139.9454054
      },
      {
        "id": 756766811,
        "name": "喫茶ひだまり",
        "category": "cafe",
        "lat": 35.1268771,
        "lon": 137.0872126
      },
      {
        "id": 756766818,
        "name": "Car Audio Gallery Cafe Car-Den",
        "category": "cafe",
        "lat": 35.1277433,
        "lon": 137.0865508
      },
      {
        "id": 758154911,
        "name": "スターバックス",
        "category": "cafe",
        "lat": 35.5774445,
        "lon": 139.659073
      },
      {
        "id": 765068440,
        "name": "Unnamed",
        "category": "cafe",
        "lat": 35.6545263,
        "lon": 139.567422
      },
      {
        "id": 765221327,
        "name": "サザン",
        "category": "cafe",
        "lat": 35.2734161,
        "lon": 136.7469814
      },
      {
        "id": 770842092,
        "name": "ロビン",
        "category": "cafe",
        "lat": 35.5863934,
        "lon": 139.6465724
      },
      {
        "id": 778373174,
        "name": "ドトールコーヒーショップ",
        "category": "cafe",
        "lat": 35.6155561,
        "lon": 139.5426386
      },
      {
        "id": 796933153,
        "name": "Lugol",
        "category": "cafe",
        "lat": 35.0112918,
        "lon": 135.7566297
      },
      {
        "id": 800046729,
        "name": "ドトールコーヒーショップ",
        "category": "cafe",
        "lat": 35.850455,
        "lon": 139.900744
      },
      {
        "id": 810650908,
        "name": "高木珈琲店",
        "category": "cafe",
        "lat": 34.9992698,
        "lon": 135.7598895
      },
      {
        "id": 810650909,
        "name": "Grace",
        "category": "cafe",
        "lat": 34.9983659,
        "lon": 135.7598783
      },
      {
        "id": 816406204,
        "name": "Cafe Gallery 宇",
        "category": "cafe",
        "lat": 35.7853264,
        "lon": 139.8979662
      },
      {
        "id": 820376453,
        "name": "ドトールコーヒーショップ",
        "category": "cafe",
        "lat": 35.6471207,
        "lon": 139.7440655
      },
      {
        "id": 822458233,
        "name": "Veloce",
        "category": "cafe",
        "lat": 35.7842963,
        "lon": 139.8984002
      },
      {
        "id": 822471483,
        "name": "ドトールコーヒーショップ",
        "category": "cafe",
        "lat": 35.7829301,
        "lon": 139.8991742
      },
      {
        "id": 828453283,
        "name": "タリーズコーヒー",
        "category": "cafe",
        "lat": 34.9734021,
        "lon": 138.3851658
      },
      {
        "id": 830760755,
        "name": "ドトールコーヒーショップ",
        "category": "cafe",
        "lat": 35.7579152,
        "lon": 139.6204189
      },
      {
        "id": 837196353,
        "name": "ドトールコーヒーショップ",
        "category": "cafe",
        "lat": 34.7146425,
        "lon": 135.23821
      },
      {
        "id": 837885456,
        "name": "スターバックス",
        "category": "cafe",
        "lat": 34.7154456,
        "lon": 135.2554248
      },
      {
        "id": 839541210,
        "name": "ルノアール",
        "category": "cafe",
        "lat": 35.7023946,
        "lon": 139.5794323
      },
      {
        "id": 839704172,
        "name": "ムーランルージュ",
        "category": "cafe",
        "lat": 35.1397262,
        "lon": 136.9274187
      },
      {
        "id": 839704181,
        "name": "サロンチェリー",
        "category": "cafe",
        "lat": 35.1406504,
        "lon": 136.9328889
      },
      {
        "id": 839826204,
        "name": "Love Ring",
        "category": "cafe",
        "lat": 35.7866202,
        "lon": 139.9005882
      },
      {
        "id": 855104781,
        "name": "Takao Coffee",
        "category": "cafe",
        "lat": 35.63032,
        "lon": 139.269757
      },
      {
        "id": 860183924,
        "name": "ドトールコーヒーショップ",
        "category": "cafe",
        "lat": 35.8445569,
        "lon": 139.8859751
      },
      {
        "id": 861115489,
        "name": "ドトールコーヒーショップ",
        "category": "cafe",
        "lat": 35.6618449,
        "lon": 139.6975425
      },
      {
        "id": 861369907,
        "name": "Cafe de Kaori",
        "category": "cafe",
        "lat": 35.7842283,
        "lon": 139.9014004
      },
      {
        "id": 864515109,
        "name": "スターバックス",
        "category": "cafe",
        "lat": 35.4543972,
        "lon": 139.63142
      },
      {
        "id": 868277311,
        "name": "ローゼ",
        "category": "cafe",
        "lat": 35.2775223,
        "lon": 136.9280105
      },
      {
        "id": 868277357,
        "name": "詩季亭",
        "category": "cafe",
        "lat": 35.2777821,
        "lon": 136.9252169
      },
      {
        "id": 873326267,
        "name": "大石茶屋",
        "category": "cafe",
        "lat": 35.3370182,
        "lon": 138.7904203
      },
      {
        "id": 885679734,
        "name": "ドトールコーヒーショップ",
        "category": "cafe",
        "lat": 35.6616777,
        "lon": 139.7136788
      },
      {
        "id": 885679740,
        "name": "スターバックス",
        "category": "cafe",
        "lat": 35.6613378,
        "lon": 139.7143655
      },
      {
        "id": 886093926,
        "name": "サンマルクカフェ",
        "category": "cafe",
        "lat": 35.629303,
        "lon": 139.5762953
      },
      {
        "id": 886221964,
        "name": "AT cafe",
        "category": "cafe",
        "lat": 35.170356,
        "lon": 136.8990514
      },
      {
        "id": 897053519,
        "name": "撫愛荘",
        "category": "cafe",
        "lat": 35.5765265,
        "lon": 139.7356845
      },
      {
        "id": 897320154,
        "name": "コロンボ (Colombo)",
        "category": "cafe",
        "lat": 35.6588894,
        "lon": 139.6255903
      },
      {
        "id": 905200654,
        "name": "axis mundi",
        "category": "cafe",
        "lat": 35.5163584,
        "lon": 139.4264091
      },
      {
        "id": 913407264,
        "name": "サンマルクカフェ",
        "category": "cafe",
        "lat": 35.7046375,
        "lon": 139.5786859
      },
      {
        "id": 919584852,
        "name": "Sepia Cafe",
        "category": "cafe",
        "lat": 35.5424477,
        "lon": 139.4480946
      },
      {
        "id": 922231017,
        "name": "PRONTO",
        "category": "cafe",
        "lat": 35.4582438,
        "lon": 139.632389
      },
      {
        "id": 923864450,
        "name": "喫茶ふじ",
        "category": "cafe",
        "lat": 35.4090454,
        "lon": 136.7541512
      },
      {
        "id": 944733557,
        "name": "cafe tigre",
        "category": "cafe",
        "lat": 35.1705496,
        "lon": 136.8969576
      },
      {
        "id": 944827544,
        "name": "喫茶ゆんげ",
        "category": "cafe",
        "lat": 35.0339768,
        "lon": 135.7243936
      },
      {
        "id": 945251610,
        "name": "さんぽ道",
        "category": "cafe",
        "lat": 35.5000676,
        "lon": 139.6837427
      },
      {
        "id": 945810443,
        "name": "夢うさぎ",
        "category": "cafe",
        "lat": 35.5263049,
        "lon": 139.6203787
      },
      {
        "id": 949102981,
        "name": "アルフォンソカフェ",
        "category": "cafe",
        "lat": 34.9485587,
        "lon": 137.5861403
      },
      {
        "id": 949117070,
        "name": "カフェ・爾今",
        "category": "cafe",
        "lat": 34.9040148,
        "lon": 137.6098057
      },
      {
        "id": 949128229,
        "name": "鳳来館",
        "category": "cafe",
        "lat": 34.9500069,
        "lon": 137.6067788
      },
      {
        "id": 949179416,
        "name": "ほほえみ",
        "category": "cafe",
        "lat": 34.8660251,
        "lon": 137.5033264
      },
      {
        "id": 951780189,
        "name": "GOSPEL",
        "category": "cafe",
        "lat": 35.0256439,
        "lon": 135.794915
      },
      {
        "id": 954749966,
        "name": "高木珈琲",
        "category": "cafe",
        "lat": 35.6829928,
        "lon": 139.9145367
      },
      {
        "id": 958168970,
        "name": "喫茶ユニーク",
        "category": "cafe",
        "lat": 34.6507368,
        "lon": 135.1356456
      },
      {
        "id": 961152319,
        "name": "スターバックス",
        "category": "cafe",
        "lat": 35.6398866,
        "lon": 139.599117
      },
      {
        "id": 961344366,
        "name": "ドトールコーヒーショップ",
        "category": "cafe",
        "lat": 35.6425407,
        "lon": 139.6086627
      },
      {
        "id": 968505151,
        "name": "PRONTO",
        "category": "cafe",
        "lat": 35.7545489,
        "lon": 139.7369507
      },
      {
        "id": 968505305,
        "name": "BECK'S COFFEE SHOP",
        "category": "cafe",
        "lat": 35.7535878,
        "lon": 139.7373319
      },
      {
        "id": 971847638,
        "name": "アデリータ",
        "category": "cafe",
        "lat": 35.5159386,
        "lon": 139.4255262
      },
      {
        "id": 973449552,
        "name": "おかめ茶屋",
        "category": "cafe",
        "lat": 34.9687905,
        "lon": 137.5704684
      },
      {
        "id": 973475508,
        "name": "Dora",
        "category": "cafe",
        "lat": 35.659264,
        "lon": 139.6822403
      },
      {
        "id": 973535000,
        "name": "鳳来",
        "category": "cafe",
        "lat": 34.9684871,
        "lon": 137.5705113
      },
      {
        "id": 973552412,
        "name": "Colorado",
        "category": "cafe",
        "lat": 35.6593588,
        "lon": 139.6818815
      },
      {
        "id": 979091149,
        "name": "ドトールコーヒーショップ",
        "category": "cafe",
        "lat": 35.5653343,
        "lon": 139.6513659
      },
      {
        "id": 979091163,
        "name": "上島珈琲店",
        "category": "cafe",
        "lat": 35.5652531,
        "lon": 139.6496686
      },
      {
        "id": 979970529,
        "name": "会津葵　西遊館",
        "category": "cafe",
        "lat": 37.4896253,
        "lon": 139.9313979
      },
      {
        "id": 979970536,
        "name": "北出丸カフェ　アドリア",
        "category": "cafe",
        "lat": 37.4900254,
        "lon": 139.9311309
      },
      {
        "id": 979976778,
        "name": "暖 (Dan)",
        "category": "cafe",
        "lat": 35.5555517,
        "lon": 139.4786701
      },
      {
        "id": 982125445,
        "name": "カフェ・ベローチェ",
        "category": "cafe",
        "lat": 35.7046623,
        "lon": 139.5771988
      },
      {
        "id": 983924225,
        "name": "VELOCE",
        "category": "cafe",
        "lat": 35.6478115,
        "lon": 140.0401128
      },
      {
        "id": 983940668,
        "name": "やまりんどう",
        "category": "cafe",
        "lat": 34.9686046,
        "lon": 137.4318243
      },
      {
        "id": 985074546,
        "name": "象の鼻カフェ",
        "category": "cafe",
        "lat": 35.4497297,
        "lon": 139.6431966
      },
      {
        "id": 986430759,
        "name": "ドトールコーヒーショップ",
        "category": "cafe",
        "lat": 35.6880642,
        "lon": 139.6000169
      },
      {
        "id": 987428788,
        "name": "Tea Forest",
        "category": "cafe",
        "lat": 34.9310273,
        "lon": 137.1814841
      },
      {
        "id": 989291887,
        "name": "ルノアール",
        "category": "cafe",
        "lat": 35.6992167,
        "lon": 139.7451955
      },
      {
        "id": 989291942,
        "name": "ドトールコーヒーショップ",
        "category": "cafe",
        "lat": 35.6993645,
        "lon": 139.7449293
      },
      {
        "id": 990952286,
        "name": "憩",
        "category": "cafe",
        "lat": 35.6525278,
        "lon": 139.7353711
      },
      {
        "id": 990952290,
        "name": "Cafe Kariz",
        "category": "cafe",
        "lat": 35.6523828,
        "lon": 139.7334443
      },
      {
        "id": 992577004,
        "name": "ドトールコーヒーショップ",
        "category": "cafe",
        "lat": 35.7064225,
        "lon": 139.7744753
      },
      {
        "id": 992734550,
        "name": "石橋亭",
        "category": "cafe",
        "lat": 35.7077825,
        "lon": 139.6158063
      },
      {
        "id": 993607315,
        "name": "Bubby's",
        "category": "cafe",
        "lat": 35.451031,
        "lon": 139.6312116
      },
      {
        "id": 995971305,
        "name": "La Petite Fromagerie",
        "category": "cafe",
        "lat": 35.5283028,
        "lon": 139.6976878
      },
      {
        "id": 995971651,
        "name": "Cafè Solare",
        "category": "cafe",
        "lat": 35.5283091,
        "lon": 139.6974743
      },
      {
        "id": 995971690,
        "name": "ARIA・C",
        "category": "cafe",
        "lat": 35.5285493,
        "lon": 139.6977353
      },
      {
        "id": 997874268,
        "name": "エクセルシオール カフェ",
        "category": "cafe",
        "lat": 35.6078539,
        "lon": 139.6681584
      },
      {
        "id": 997874302,
        "name": "スターバックス",
        "category": "cafe",
        "lat": 35.6078873,
        "lon": 139.6692216
      },
      {
        "id": 997874424,
        "name": "モリバコーヒー",
        "category": "cafe",
        "lat": 35.6079285,
        "lon": 139.6699428
      },
      {
        "id": 1006780191,
        "name": "ドトールコーヒーショップ",
        "category": "cafe",
        "lat": 35.4440999,
        "lon": 139.6483621
      },
      {
        "id": 1006954866,
        "name": "Charan Paulin",
        "category": "cafe",
        "lat": 35.4483129,
        "lon": 139.6432823
      },
      {
        "id": 1006954887,
        "name": "カンファーツリー",
        "category": "cafe",
        "lat": 35.4479619,
        "lon": 139.6439767
      },
      {
        "id": 1007029624,
        "name": "ドトールコーヒーショップ",
        "category": "cafe",
        "lat": 35.4468527,
        "lon": 139.6460828
      },
      {
        "id": 1014145800,
        "name": "安樹",
        "category": "cafe",
        "lat": 34.902255,
        "lon": 137.6147677
      },
      {
        "id": 1019518193,
        "name": "和気藹々",
        "category": "cafe",
        "lat": 34.9323664,
        "lon": 135.7069341
      },
      {
        "id": 1026370833,
        "name": "Wonder Land",
        "category": "cafe",
        "lat": 34.9546931,
        "lon": 135.7091584
      },
      {
        "id": 1028199578,
        "name": "伯爵",
        "category": "cafe",
        "lat": 35.7316815,
        "lon": 139.7111048
      },
      {
        "id": 1035463382,
        "name": "小昼 (Kobilu)",
        "category": "cafe",
        "lat": 35.6568792,
        "lon": 139.5899891
      },
      {
        "id": 1044414529,
        "name": "珈亭樹",
        "category": "cafe",
        "lat": 34.9888212,
        "lon": 137.5238675
      },
      {
        "id": 1044414544,
        "name": "夢きこう",
        "category": "cafe",
        "lat": 35.0052705,
        "lon": 137.5239508
      },
      {
        "id": 1050718456,
        "name": "FOR YOU",
        "category": "cafe",
        "lat": 34.8968592,
        "lon": 137.5176862
      },
      {
        "id": 1053568281,
        "name": "喫茶峠",
        "category": "cafe",
        "lat": 35.1322724,
        "lon": 137.5592351
      },
      {
        "id": 1053604224,
        "name": "喫茶ロード",
        "category": "cafe",
        "lat": 35.1731987,
        "lon": 137.5351865
      },
      {
        "id": 1060524439,
        "name": "スターバックス",
        "category": "cafe",
        "lat": 35.7541737,
        "lon": 139.7377658
      },
      {
        "id": 1075317953,
        "name": "カフェ・ベローチェ",
        "category": "cafe",
        "lat": 35.7018039,
        "lon": 139.7393725
      },
      {
        "id": 1078253461,
        "name": "ドトールコーヒーショップ",
        "category": "cafe",
        "lat": 35.7037266,
        "lon": 139.6211503
      },
      {
        "id": 1078693438,
        "name": "とむとむ",
        "category": "cafe",
        "lat": 35.9323727,
        "lon": 140.1621406
      },
      {
        "id": 1102931812,
        "name": "阿露摩",
        "category": "cafe",
        "lat": 34.8998829,
        "lon": 137.4933803
      },
      {
        "id": 1110300561,
        "name": "ドトールコーヒーショップ",
        "category": "cafe",
        "lat": 35.7029836,
        "lon": 139.6000467
      },
      {
        "id": 1112548990,
        "name": "ひまわり",
        "category": "cafe",
        "lat": 34.9054863,
        "lon": 137.5068613
      },
      {
        "id": 1114908651,
        "name": "タリーズコーヒー",
        "category": "cafe",
        "lat": 35.706005,
        "lon": 139.7086246
      },
      {
        "id": 1116423370,
        "name": "Cafe CottonClub",
        "category": "cafe",
        "lat": 35.7121467,
        "lon": 139.7069442
      },
      {
        "id": 1116423394,
        "name": "ドトールコーヒーショップ",
        "category": "cafe",
        "lat": 35.7120694,
        "lon": 139.7071239
      },
      {
        "id": 1116423395,
        "name": "スターバックス",
        "category": "cafe",
        "lat": 35.7122578,
        "lon": 139.7067833
      },
      {
        "id": 1116446559,
        "name": "サンマルクカフェ",
        "category": "cafe",
        "lat": 35.7128654,
        "lon": 139.7055535
      },
      {
        "id": 1116446563,
        "name": "まんがの時間",
        "category": "cafe",
        "lat": 35.712836,
        "lon": 139.7054341
      },
      {
        "id": 1116446566,
        "name": "銀座コージーコーナー",
        "category": "cafe",
        "lat": 35.7130973,
        "lon": 139.7051176
      },
      {
        "id": 1116460145,
        "name": "エクセルシオール カフェ",
        "category": "cafe",
        "lat": 35.7127598,
        "lon": 139.704494
      },
      {
        "id": 1119553406,
        "name": "fasto",
        "category": "cafe",
        "lat": 34.8915034,
        "lon": 137.4733197
      },
      {
        "id": 1123002043,
        "name": "レオン",
        "category": "cafe",
        "lat": 35.1741775,
        "lon": 136.8975061
      },
      {
        "id": 1123122550,
        "name": "グリーンヒル",
        "category": "cafe",
        "lat": 34.9121052,
        "lon": 137.5070857
      },
      {
        "id": 1124236458,
        "name": "カフェドローズ",
        "category": "cafe",
        "lat": 34.9975601,
        "lon": 137.4340237
      },
      {
        "id": 1124261054,
        "name": "カラオケ喫茶ドレミファ",
        "category": "cafe",
        "lat": 34.8749836,
        "lon": 137.4595718
      },
      {
        "id": 1124837228,
        "name": "Délifrance",
        "category": "cafe",
        "lat": 35.6648344,
        "lon": 139.7123995
      },
      {
        "id": 1126108166,
        "name": "スターバックス",
        "category": "cafe",
        "lat": 35.7588523,
        "lon": 139.6288086
      },
      {
        "id": 1126254860,
        "name": "タリーズ",
        "category": "cafe",
        "lat": 36.1983222,
        "lon": 140.3038312
      },
      {
        "id": 1126262336,
        "name": "ドトールコーヒーショップ",
        "category": "cafe",
        "lat": 35.6687972,
        "lon": 139.741071
      },
      {
        "id": 1129097061,
        "name": "カフェみるく",
        "category": "cafe",
        "lat": 35.1418027,
        "lon": 137.5490806
      },
      {
        "id": 1129128271,
        "name": "珈琲らぶ",
        "category": "cafe",
        "lat": 35.161727,
        "lon": 137.6286453
      },
      {
        "id": 1130226235,
        "name": "ドトールコーヒーショップ",
        "category": "cafe",
        "lat": 35.6102069,
        "lon": 139.7430006
      },
      {
        "id": 1130530511,
        "name": "ドトールコーヒーショップ",
        "category": "cafe",
        "lat": 35.7026017,
        "lon": 139.7666098
      },
      {
        "id": 1130806319,
        "name": "喫茶フルーツ",
        "category": "cafe",
        "lat": 35.4085896,
        "lon": 136.7522951
      },
      {
        "id": 1130806321,
        "name": "喫茶ポニー",
        "category": "cafe",
        "lat": 35.4090684,
        "lon": 136.7519062
      },
      {
        "id": 1130809352,
        "name": "喫茶むらやま",
        "category": "cafe",
        "lat": 35.4076777,
        "lon": 136.7536619
      },
      {
        "id": 1135171247,
        "name": "Unnamed",
        "category": "cafe",
        "lat": 34.9013384,
        "lon": 137.4903604
      },
      {
        "id": 1138333037,
        "name": "珈琲BELL",
        "category": "cafe",
        "lat": 35.6924718,
        "lon": 139.674549
      },
      {
        "id": 1138564602,
        "name": "カフェ マスターズ",
        "category": "cafe",
        "lat": 35.6834053,
        "lon": 139.7846391
      },
      {
        "id": 1138564606,
        "name": "シェルブール",
        "category": "cafe",
        "lat": 35.6827825,
        "lon": 139.7851858
      },
      {
        "id": 1140261085,
        "name": "ポンパドール",
        "category": "cafe",
        "lat": 34.8851335,
        "lon": 137.4684036
      },
      {
        "id": 1140302223,
        "name": "みやした珈琲",
        "category": "cafe",
        "lat": 34.8879072,
        "lon": 137.4697273
      },
      {
        "id": 1140321308,
        "name": "ともしび",
        "category": "cafe",
        "lat": 34.8830161,
        "lon": 137.4661439
      },
      {
        "id": 1140444746,
        "name": "ぷらんたん",
        "category": "cafe",
        "lat": 34.9093288,
        "lon": 137.501073
      },
      {
        "id": 1145077228,
        "name": "ツナグカフェ",
        "category": "cafe",
        "lat": 35.6602818,
        "lon": 139.7428428
      },
      {
        "id": 1145149963,
        "name": "Le Pain Quotidien",
        "category": "cafe",
        "lat": 35.6582115,
        "lon": 139.7501546
      },
      {
        "id": 1145383263,
        "name": "エクセルシオール カフェ",
        "category": "cafe",
        "lat": 35.6467756,
        "lon": 139.7461783
      },
      {
        "id": 1146982578,
        "name": "星乃珈琲店",
        "category": "cafe",
        "lat": 35.5962269,
        "lon": 139.5590128
      },
      {
        "id": 1148542959,
        "name": "ブロンディ",
        "category": "cafe",
        "lat": 35.7137823,
        "lon": 139.7927508
      },
      {
        "id": 1148542990,
        "name": "喫茶とみ一",
        "category": "cafe",
        "lat": 35.7184982,
        "lon": 139.7876566
      },
      {
        "id": 1148542995,
        "name": "Unnamed",
        "category": "cafe",
        "lat": 35.7128567,
        "lon": 139.7944191
      },
      {
        "id": 1148543020,
        "name": "金龍茶屋",
        "category": "cafe",
        "lat": 35.7127958,
        "lon": 139.7948563
      },
      {
        "id": 1148543038,
        "name": "キレット",
        "category": "cafe",
        "lat": 35.7127759,
        "lon": 139.7964014
      },
      {
        "id": 1148820996,
        "name": "喫茶ブラザー",
        "category": "cafe",
        "lat": 35.7152975,
        "lon": 139.792903
      },
      {
        "id": 1150414097,
        "name": "シェ・ココ",
        "category": "cafe",
        "lat": 34.9515968,
        "lon": 135.7018608
      },
      {
        "id": 1150465501,
        "name": "ミルクホール",
        "category": "cafe",
        "lat": 35.7214131,
        "lon": 139.7626739
      },
      {
        "id": 1161775192,
        "name": "喫茶　ぐう",
        "category": "cafe",
        "lat": 35.1339829,
        "lon": 137.3124848
      },
      {
        "id": 1164641686,
        "name": "カフェ・ド・クリエ",
        "category": "cafe",
        "lat": 35.1701116,
        "lon": 136.8983586
      },
      {
        "id": 1164641687,
        "name": "Unnamed",
        "category": "cafe",
        "lat": 35.1738307,
        "lon": 136.8983206
      },
      {
        "id": 1164641693,
        "name": "Unnamed",
        "category": "cafe",
        "lat": 35.1734312,
        "lon": 136.8988914
      },
      {
        "id": 1166494511,
        "name": "胡桃",
        "category": "cafe",
        "lat": 35.5822905,
        "lon": 139.499178
      },
      {
        "id": 1170225732,
        "name": "カフェ・ド・クリエ",
        "category": "cafe",
        "lat": 35.6701691,
        "lon": 139.7412278
      },
      {
        "id": 1171702322,
        "name": "神戸珈琲倶楽部 高蔵寺店",
        "category": "cafe",
        "lat": 35.2815795,
        "lon": 137.0478075
      },
      {
        "id": 1176098842,
        "name": "キャロット",
        "category": "cafe",
        "lat": 35.741792,
        "lon": 137.9313624
      },
      {
        "id": 1180276730,
        "name": "Sacra Cafe",
        "category": "cafe",
        "lat": 35.6792756,
        "lon": 139.7986192
      },
      {
        "id": 1188381010,
        "name": "エクセルシオール カフェ",
        "category": "cafe",
        "lat": 35.6733843,
        "lon": 139.7372059
      },
      {
        "id": 1190006416,
        "name": "ドトールコーヒーショップ",
        "category": "cafe",
        "lat": 35.6939279,
        "lon": 139.7009038
      },
      {
        "id": 1192598954,
        "name": "TAK CAFE",
        "category": "cafe",
        "lat": 35.7011575,
        "lon": 139.7026171
      },
      {
        "id": 1193762245,
        "name": "GOOS",
        "category": "cafe",
        "lat": 35.7413726,
        "lon": 137.9320743
      },
      {
        "id": 1195197103,
        "name": "サンマルクカフェ",
        "category": "cafe",
        "lat": 35.6727334,
        "lon": 139.7673145
      },
      {
        "id": 1195197230,
        "name": "ドトールコーヒーショップ",
        "category": "cafe",
        "lat": 35.6727804,
        "lon": 139.767244
      },
      {
        "id": 1195319078,
        "name": "ufotable cafe",
        "category": "cafe",
        "lat": 35.7096177,
        "lon": 139.6549198
      },
      {
        "id": 1195466420,
        "name": "PEOPLEWISE CAFE",
        "category": "cafe",
        "lat": 35.5825492,
        "lon": 139.556871
      },
      {
        "id": 1201924145,
        "name": "シャレード",
        "category": "cafe",
        "lat": 35.2222868,
        "lon": 137.0966049
      },
      {
        "id": 1207349182,
        "name": "Lanai",
        "category": "cafe",
        "lat": 35.6069594,
        "lon": 139.4999278
      },
      {
        "id": 1211500676,
        "name": "信州里の菓工房",
        "category": "cafe",
        "lat": 35.6627197,
        "lon": 137.9106667
      },
      {
        "id": 1230481912,
        "name": "ドトールコーヒーショップ",
        "category": "cafe",
        "lat": 35.6097065,
        "lon": 139.7117138
      },
      {
        "id": 1231861279,
        "name": "万惣",
        "category": "cafe",
        "lat": 35.6955056,
        "lon": 139.7706442
      },
      {
        "id": 1231861290,
        "name": "カフェ・ベローチェ",
        "category": "cafe",
        "lat": 35.6955922,
        "lon": 139.7688481
      },
      {
        "id": 1237995861,
        "name": "ドトールコーヒーショップ",
        "category": "cafe",
        "lat": 35.6553878,
        "lon": 139.7961696
      },
      {
        "id": 1237995869,
        "name": "スターバックス",
        "category": "cafe",
        "lat": 35.6556337,
        "lon": 139.7964141
      },
      {
        "id": 1237995880,
        "name": "Pronto",
        "category": "cafe",
        "lat": 35.6553241,
        "lon": 139.7963653
      },
      {
        "id": 1238545311,
        "name": "Segafredo",
        "category": "cafe",
        "lat": 35.6440736,
        "lon": 139.6991475
      },
      {
        "id": 1238927205,
        "name": "Olu olu cafe",
        "category": "cafe",
        "lat": 35.6443368,
        "lon": 139.6796809
      },
      {
        "id": 1243276554,
        "name": "珈琲館",
        "category": "cafe",
        "lat": 34.8144115,
        "lon": 135.7020493
      },
      {
        "id": 1247758740,
        "name": "PEPSHI",
        "category": "cafe",
        "lat": 34.445497,
        "lon": 135.358338
      },
      {
        "id": 1249538662,
        "name": "スターバックス",
        "category": "cafe",
        "lat": 35.6587425,
        "lon": 139.7052337
      },
      {
        "id": 1252386485,
        "name": "歌遊館 夏",
        "category": "cafe",
        "lat": 34.4440704,
        "lon": 135.356741
      },
      {
        "id": 1257415741,
        "name": "Umiya Cafe",
        "category": "cafe",
        "lat": 34.6693815,
        "lon": 135.4974217
      },
      {
        "id": 1257415751,
        "name": "珈琲艇 CABIN",
        "category": "cafe",
        "lat": 34.6693309,
        "lon": 135.4966662
      },
      {
        "id": 1257644569,
        "name": "TEAROOMリスボン",
        "category": "cafe",
        "lat": 34.7189459,
        "lon": 135.3778818
      },
      {
        "id": 1259432983,
        "name": "やまもと",
        "category": "cafe",
        "lat": 34.7211334,
        "lon": 135.2327377
      },
      {
        "id": 1260453296,
        "name": "珈琲屋シルク",
        "category": "cafe",
        "lat": 35.1224725,
        "lon": 137.0088011
      },
      {
        "id": 1265857995,
        "name": "ドトールコーヒーショップ",
        "category": "cafe",
        "lat": 34.8273142,
        "lon": 135.4141808
      },
      {
        "id": 1266982089,
        "name": "喫茶館カルディ",
        "category": "cafe",
        "lat": 34.8220356,
        "lon": 135.4654634
      },
      {
        "id": 1266982248,
        "name": "CAFE SIDE",
        "category": "cafe",
        "lat": 34.8347515,
        "lon": 135.4686863
      },
      {
        "id": 1268469846,
        "name": "ドトールコーヒーショップ",
        "category": "cafe",
        "lat": 35.5748339,
        "lon": 139.6803712
      },
      {
        "id": 1289174540,
        "name": "むさしの森珈琲",
        "category": "cafe",
        "lat": 35.5011327,
        "lon": 139.4510849
      },
      {
        "id": 1293320313,
        "name": "カフェレストラディッシュ",
        "category": "cafe",
        "lat": 35.1549104,
        "lon": 136.9143336
      },
      {
        "id": 1293327558,
        "name": "喫茶マウンテン",
        "category": "cafe",
        "lat": 35.1446887,
        "lon": 136.9606364
      },
      {
        "id": 1294885079,
        "name": "ATP",
        "category": "cafe",
        "lat": 35.5717514,
        "lon": 139.3771514
      },
      {
        "id": 1301637572,
        "name": "31",
        "category": "cafe",
        "lat": 35.1239139,
        "lon": 137.0077119
      },
      {
        "id": 1303382008,
        "name": "ダ・ノンナ",
        "category": "cafe",
        "lat": 35.6355405,
        "lon": 139.6142403
      },
      {
        "id": 1304330502,
        "name": "Heart Live Cafe",
        "category": "cafe",
        "lat": 35.7893834,
        "lon": 139.9297356
      },
      {
        "id": 1312616402,
        "name": "ドトールコーヒーショップ",
        "category": "cafe",
        "lat": 35.6497597,
        "lon": 139.9126348
      },
      {
        "id": 1312616420,
        "name": "コメダ珈琲店",
        "category": "cafe",
        "lat": 35.6492379,
        "lon": 139.9132208
      },
      {
        "id": 1313831778,
        "name": "喫茶おたまじゃくし",
        "category": "cafe",
        "lat": 35.0752964,
        "lon": 137.7006776
      },
      {
        "id": 1315146067,
        "name": "スターバックス",
        "category": "cafe",
        "lat": 35.7279407,
        "lon": 139.7118669
      },
      {
        "id": 1315146101,
        "name": "モリバコーヒー",
        "category": "cafe",
        "lat": 35.7330679,
        "lon": 139.7093577
      },
      {
        "id": 1319136375,
        "name": "咲蔵珈琲",
        "category": "cafe",
        "lat": 35.1400947,
        "lon": 137.0401093
      },
      {
        "id": 1319170077,
        "name": "桂山",
        "category": "cafe",
        "lat": 35.1467054,
        "lon": 137.026253
      },
      {
        "id": 1319912087,
        "name": "スターバックス",
        "category": "cafe",
        "lat": 35.1569768,
        "lon": 137.0339505
      },
      {
        "id": 1320325158,
        "name": "ブランチカフェ　アットホーム",
        "category": "cafe",
        "lat": 35.1402219,
        "lon": 137.0267099
      },
      {
        "id": 1321384592,
        "name": "エクセルシオール カフェ",
        "category": "cafe",
        "lat": 35.7042454,
        "lon": 139.5801449
      },
      {
        "id": 1323154429,
        "name": "甘味喫茶おかげ庵",
        "category": "cafe",
        "lat": 35.167174,
        "lon": 137.0339571
      },
      {
        "id": 1326424579,
        "name": "タリーズコーヒー",
        "category": "cafe",
        "lat": 35.6686995,
        "lon": 139.7656139
      },
      {
        "id": 1327304988,
        "name": "スターバックス",
        "category": "cafe",
        "lat": 35.6716935,
        "lon": 139.7665908
      },
      {
        "id": 1327304991,
        "name": "トリコロール本店",
        "category": "cafe",
        "lat": 35.6702592,
        "lon": 139.7650197
      },
      {
        "id": 1327332377,
        "name": "ドトールコーヒーショップ",
        "category": "cafe",
        "lat": 35.6754844,
        "lon": 139.7695215
      },
      {
        "id": 1330901346,
        "name": "23番地カフェ",
        "category": "cafe",
        "lat": 35.7094705,
        "lon": 139.8005757
      },
      {
        "id": 1333404230,
        "name": "スターバックス",
        "category": "cafe",
        "lat": 35.6497866,
        "lon": 139.4467636
      },
      {
        "id": 1333613660,
        "name": "ドトールコーヒーショップ",
        "category": "cafe",
        "lat": 35.6508258,
        "lon": 139.4482043
      },
      {
        "id": 1347577187,
        "name": "ルミエール",
        "category": "cafe",
        "lat": 35.8322136,
        "lon": 139.9332995
      },
      {
        "id": 1347795915,
        "name": "ドトールコーヒーショップ",
        "category": "cafe",
        "lat": 35.8041066,
        "lon": 139.9466131
      },
      {
        "id": 1352041883,
        "name": "came cafe",
        "category": "cafe",
        "lat": 35.7001758,
        "lon": 139.7988497
      },
      {
        "id": 1352156073,
        "name": "茶房",
        "category": "cafe",
        "lat": 35.698356,
        "lon": 139.797125
      },
      {
        "id": 1354660222,
        "name": "るる",
        "category": "cafe",
        "lat": 35.497986,
        "lon": 139.6328784
      },
      {
        "id": 1362305577,
        "name": "ドトールコーヒーショップ",
        "category": "cafe",
        "lat": 35.4984869,
        "lon": 139.6329318
      },
      {
        "id": 1363294029,
        "name": "PRONTO",
        "category": "cafe",
        "lat": 35.711391,
        "lon": 139.7747048
      },
      {
        "id": 1366707041,
        "name": "KURICCHI",
        "category": "cafe",
        "lat": 35.7306154,
        "lon": 139.4763583
      },
      {
        "id": 1367460898,
        "name": "カフェ・ベローチェ",
        "category": "cafe",
        "lat": 35.6848003,
        "lon": 139.7753701
      },
      {
        "id": 1367460913,
        "name": "スターバックス",
        "category": "cafe",
        "lat": 35.6847824,
        "lon": 139.7748973
      },
      {
        "id": 1367525154,
        "name": "タリーズコーヒー",
        "category": "cafe",
        "lat": 35.6525671,
        "lon": 139.7537812
      },
      {
        "id": 1369815279,
        "name": "Cafe&deli hug",
        "category": "cafe",
        "lat": 35.7229088,
        "lon": 139.513727
      },
      {
        "id": 1371930767,
        "name": "freshly roasted Coffee",
        "category": "cafe",
        "lat": 35.6998738,
        "lon": 139.4480141
      },
      {
        "id": 1376708003,
        "name": "むかいがわら",
        "category": "cafe",
        "lat": 35.5733411,
        "lon": 139.6672069
      },
      {
        "id": 1377184970,
        "name": "ドトールコーヒーショップ",
        "category": "cafe",
        "lat": 35.7054853,
        "lon": 139.6195424
      },
      {
        "id": 1377185239,
        "name": "カフェ・ベローチェ",
        "category": "cafe",
        "lat": 35.7060871,
        "lon": 139.6181981
      },
      {
        "id": 1377185242,
        "name": "３米３",
        "category": "cafe",
        "lat": 35.7065046,
        "lon": 139.6173752
      },
      {
        "id": 1377426927,
        "name": "シャトードール (Château d'or)",
        "category": "cafe",
        "lat": 34.6830115,
        "lon": 135.8277016
      },
      {
        "id": 1377643823,
        "name": "カフェ・ド・クリエ",
        "category": "cafe",
        "lat": 35.6574776,
        "lon": 139.704091
      },
      {
        "id": 1378123780,
        "name": "スターバックス",
        "category": "cafe",
        "lat": 35.6564007,
        "lon": 139.7054779
      },
      {
        "id": 1378123983,
        "name": "上島珈琲店",
        "category": "cafe",
        "lat": 35.6565383,
        "lon": 139.7053018
      },
      {
        "id": 1378334780,
        "name": "The Alley Lujiaoxiang",
        "category": "cafe",
        "lat": 35.6474232,
        "lon": 139.7111083
      },
      {
        "id": 1378790076,
        "name": "サンマルクカフェ",
        "category": "cafe",
        "lat": 35.6476928,
        "lon": 139.7447494
      },
      {
        "id": 1379645979,
        "name": "OB流山宿",
        "category": "cafe",
        "lat": 35.8596614,
        "lon": 139.9062484
      },
      {
        "id": 1379717069,
        "name": "茶豆蘭",
        "category": "cafe",
        "lat": 35.8540135,
        "lon": 139.8998245
      },
      {
        "id": 1385607839,
        "name": "エキスパート倶楽部",
        "category": "cafe",
        "lat": 35.6706959,
        "lon": 139.7479687
      },
      {
        "id": 1385607874,
        "name": "Le Petit Tonneau",
        "category": "cafe",
        "lat": 35.6699641,
        "lon": 139.7470805
      },
      {
        "id": 1385607901,
        "name": "Unnamed",
        "category": "cafe",
        "lat": 35.6671114,
        "lon": 139.757858
      },
      {
        "id": 1385607920,
        "name": "Delirium Cafe Tokyo",
        "category": "cafe",
        "lat": 35.6705283,
        "lon": 139.7468176
      },
      {
        "id": 1385607925,
        "name": "カフェ・ド・クリエ",
        "category": "cafe",
        "lat": 35.6661722,
        "lon": 139.7579385
      },
      {
        "id": 1385935255,
        "name": "BECK'S COFFEE SHOP",
        "category": "cafe",
        "lat": 35.7310617,
        "lon": 139.7102106
      },
      {
        "id": 1387159222,
        "name": "カフェバルドー",
        "category": "cafe",
        "lat": 34.6866113,
        "lon": 135.8262137
      },
      {
        "id": 1389048962,
        "name": "コバン",
        "category": "cafe",
        "lat": 35.5744623,
        "lon": 139.6586819
      },
      {
        "id": 1389067266,
        "name": "ドトールコーヒーショップ",
        "category": "cafe",
        "lat": 35.5869731,
        "lon": 139.6296354
      },
      {
        "id": 1389934038,
        "name": "沖ノ谷戸カフェ",
        "category": "cafe",
        "lat": 35.5895644,
        "lon": 139.4971873
      },
      {
        "id": 1393696239,
        "name": "MIRAGE",
        "category": "cafe",
        "lat": 35.7149275,
        "lon": 139.6871038
      },
      {
        "id": 1394714960,
        "name": "カフェコロラド",
        "category": "cafe",
        "lat": 35.6442248,
        "lon": 139.6699064
      },
      {
        "id": 1396161022,
        "name": "バーガーカフェ 日の出 大崩店",
        "category": "cafe",
        "lat": 34.8940316,
        "lon": 138.3443043
      },
      {
        "id": 1396755440,
        "name": "吉野",
        "category": "cafe",
        "lat": 35.7694253,
        "lon": 139.9084399
      },
      {
        "id": 1396771485,
        "name": "めいぷる",
        "category": "cafe",
        "lat": 35.7715452,
        "lon": 139.9145033
      },
      {
        "id": 1398411779,
        "name": "カフェ まめは",
        "category": "cafe",
        "lat": 35.7925694,
        "lon": 139.9205723
      },
      {
        "id": 1398411785,
        "name": "珈琲待夢",
        "category": "cafe",
        "lat": 35.7954733,
        "lon": 139.9199333
      },
      {
        "id": 1399538120,
        "name": "かみなか",
        "category": "cafe",
        "lat": 35.7932309,
        "lon": 139.9194773
      },
      {
        "id": 1399538136,
        "name": "ジロー",
        "category": "cafe",
        "lat": 35.7949946,
        "lon": 139.917833
      },
      {
        "id": 1400977772,
        "name": "Sally's Cafe",
        "category": "cafe",
        "lat": 36.5756729,
        "lon": 136.65465
      },
      {
        "id": 1400977775,
        "name": "美春",
        "category": "cafe",
        "lat": 36.5744494,
        "lon": 136.6561363
      },
      {
        "id": 1401917502,
        "name": "丘",
        "category": "cafe",
        "lat": 35.7088036,
        "lon": 139.7753352
      },
      {
        "id": 1401927611,
        "name": "まんがDoor",
        "category": "cafe",
        "lat": 35.7111727,
        "lon": 139.7752834
      },
      {
        "id": 1401944080,
        "name": "BECK'S COFFEE SHOP",
        "category": "cafe",
        "lat": 35.712419,
        "lon": 139.776274
      },
      {
        "id": 1402492038,
        "name": "銀杏や(ichoya)",
        "category": "cafe",
        "lat": 34.6838507,
        "lon": 135.8286671
      },
      {
        "id": 1402530863,
        "name": "フロレスタ（FLORESTA）",
        "category": "cafe",
        "lat": 34.6832703,
        "lon": 135.8283248
      },
      {
        "id": 1402530883,
        "name": "珈琲豆専門店 羅漢",
        "category": "cafe",
        "lat": 34.6832581,
        "lon": 135.8284168
      },
      {
        "id": 1405246074,
        "name": "梅の木",
        "category": "cafe",
        "lat": 35.7789958,
        "lon": 139.7214329
      },
      {
        "id": 1409380764,
        "name": "ドトールコーヒーショップ",
        "category": "cafe",
        "lat": 35.752984,
        "lon": 139.7385915
      },
      {
        "id": 1412130063,
        "name": "cofee beans ROCOCO",
        "category": "cafe",
        "lat": 34.683634,
        "lon": 135.827525
      },
      {
        "id": 1412130075,
        "name": "シャンブル",
        "category": "cafe",
        "lat": 34.683886,
        "lon": 135.826754
      },
      {
        "id": 1415713918,
        "name": "INAZUMA CAFE",
        "category": "cafe",
        "lat": 35.7069524,
        "lon": 139.6200326
      },
      {
        "id": 1418852632,
        "name": "AKB",
        "category": "cafe",
        "lat": 35.439536,
        "lon": 139.432783
      },
      {
        "id": 1419226159,
        "name": "WORLD　BEANS",
        "category": "cafe",
        "lat": 35.5468648,
        "lon": 139.7206641
      },
      {
        "id": 1419226162,
        "name": "ドリーム",
        "category": "cafe",
        "lat": 35.5473146,
        "lon": 139.7201545
      },
      {
        "id": 1420692936,
        "name": "ふれあい",
        "category": "cafe",
        "lat": 35.7539756,
        "lon": 139.9435743
      },
      {
        "id": 1420995605,
        "name": "ブラジル",
        "category": "cafe",
        "lat": 34.4900824,
        "lon": 136.7020457
      },
      {
        "id": 1422990173,
        "name": "DesignOhasuDays キャンプパーク",
        "category": "cafe",
        "lat": 34.4921203,
        "lon": 135.5109352
      },
      {
        "id": 1423055775,
        "name": "GOLDEN RIVER（ゴールデンリバー）",
        "category": "cafe",
        "lat": 34.074654,
        "lon": 135.214059
      },
      {
        "id": 1423719470,
        "name": "カフェ・ベローチェ",
        "category": "cafe",
        "lat": 35.6787838,
        "lon": 139.7819066
      },
      {
        "id": 1423728707,
        "name": "サンマルクカフェ",
        "category": "cafe",
        "lat": 35.6793997,
        "lon": 139.7720539
      },
      {
        "id": 1426116720,
        "name": "シャノワール",
        "category": "cafe",
        "lat": 35.6457428,
        "lon": 139.8260788
      },
      {
        "id": 1426869589,
        "name": "ドトールコーヒーショップ",
        "category": "cafe",
        "lat": 35.1035445,
        "lon": 139.0779307
      },
      {
        "id": 1426874800,
        "name": "ヴィ・ド・フランス",
        "category": "cafe",
        "lat": 35.1513351,
        "lon": 138.6511947
      },
      {
        "id": 1428870161,
        "name": "竹屋",
        "category": "cafe",
        "lat": 36.5671146,
        "lon": 136.6631006
      },
      {
        "id": 1428958596,
        "name": "長田亭",
        "category": "cafe",
        "lat": 36.5753928,
        "lon": 136.6505949
      },
      {
        "id": 1433996503,
        "name": "キルケゴール",
        "category": "cafe",
        "lat": 34.9386688,
        "lon": 138.3594447
      },
      {
        "id": 1435033888,
        "name": "Holly's Cafe",
        "category": "cafe",
        "lat": 35.0038454,
        "lon": 135.7578904
      },
      {
        "id": 1435299081,
        "name": "コム デ ジュルノー",
        "category": "cafe",
        "lat": 35.7060518,
        "lon": 139.6225298
      },
      {
        "id": 1436032985,
        "name": "Kikuya",
        "category": "cafe",
        "lat": 35.4723148,
        "lon": 135.3928316
      },
      {
        "id": 1437227681,
        "name": "Tally's Coffee",
        "category": "cafe",
        "lat": 35.4397387,
        "lon": 139.3635522
      },
      {
        "id": 1437415272,
        "name": "Coffee Boomerang",
        "category": "cafe",
        "lat": 35.4165727,
        "lon": 139.3397206
      },
      {
        "id": 1440503987,
        "name": "カフェ・テラッツァ",
        "category": "cafe",
        "lat": 35.2663132,
        "lon": 139.0172564
      },
      {
        "id": 1441099339,
        "name": "カフェ・アルック",
        "category": "cafe",
        "lat": 35.7072524,
        "lon": 139.623244
      },
      {
        "id": 1441239778,
        "name": "スターバックス",
        "category": "cafe",
        "lat": 35.1549431,
        "lon": 136.9640295
      },
      {
        "id": 1442566084,
        "name": "GRAIN",
        "category": "cafe",
        "lat": 35.2671337,
        "lon": 139.0062477
      },
      {
        "id": 1442880295,
        "name": "ならや",
        "category": "cafe",
        "lat": 35.2426437,
        "lon": 139.0625519
      },
      {
        "id": 1442880340,
        "name": "Grande Riviere Hakone",
        "category": "cafe",
        "lat": 35.2581852,
        "lon": 139.0007006
      },
      {
        "id": 1443986250,
        "name": "サンマルクカフェ",
        "category": "cafe",
        "lat": 35.6234199,
        "lon": 139.4256082
      },
      {
        "id": 1444047249,
        "name": "自遊空間",
        "category": "cafe",
        "lat": 35.6245204,
        "lon": 139.4255558
      },
      {
        "id": 1445566877,
        "name": "ケーニヒス クローネ",
        "category": "cafe",
        "lat": 34.6899494,
        "lon": 135.1917272
      },
      {
        "id": 1447682003,
        "name": "タリーズコーヒー",
        "category": "cafe",
        "lat": 35.5890411,
        "lon": 139.7310266
      },
      {
        "id": 1449283849,
        "name": "ドトールコーヒーショップ",
        "category": "cafe",
        "lat": 35.7300095,
        "lon": 139.7481127
      },
      {
        "id": 1450342980,
        "name": "CatRoomこるね",
        "category": "cafe",
        "lat": 35.7032377,
        "lon": 139.6206118
      },
      {
        "id": 1450513748,
        "name": "Unnamed",
        "category": "cafe",
        "lat": 35.9374736,
        "lon": 138.42224
      },
      {
        "id": 1450818611,
        "name": "Unnamed",
        "category": "cafe",
        "lat": 35.9208293,
        "lon": 138.432115
      },
      {
        "id": 1460579897,
        "name": "シャノワール",
        "category": "cafe",
        "lat": 35.6621591,
        "lon": 139.6674484
      },
      {
        "id": 1461246455,
        "name": "清泉寮ジャージーハット",
        "category": "cafe",
        "lat": 35.9251151,
        "lon": 138.4208437
      },
      {
        "id": 1466098805,
        "name": "カフェ東亜サプライ",
        "category": "cafe",
        "lat": 35.6726994,
        "lon": 139.7947911
      },
      {
        "id": 1469147021,
        "name": "コーヒーショップ",
        "category": "cafe",
        "lat": 36.7413562,
        "lon": 138.4154042
      },
      {
        "id": 1469147022,
        "name": "ティーサロン 都",
        "category": "cafe",
        "lat": 36.741272,
        "lon": 138.4153442
      },
      {
        "id": 1475623032,
        "name": "Makekura",
        "category": "cafe",
        "lat": 34.691434,
        "lon": 135.8223017
      },
      {
        "id": 1475721961,
        "name": "スターバックス",
        "category": "cafe",
        "lat": 35.656911,
        "lon": 139.7522494
      },
      {
        "id": 1475722954,
        "name": "ルノアール",
        "category": "cafe",
        "lat": 35.6567309,
        "lon": 139.7538194
      },
      {
        "id": 1477408838,
        "name": "カフェクレエル",
        "category": "cafe",
        "lat": 35.7060861,
        "lon": 139.6225415
      },
      {
        "id": 1481152720,
        "name": "じゅんねえ",
        "category": "cafe",
        "lat": 34.7632752,
        "lon": 137.429983
      },
      {
        "id": 1481152769,
        "name": "リバーサイド",
        "category": "cafe",
        "lat": 34.7632769,
        "lon": 137.4298516
      },
      {
        "id": 1482079801,
        "name": "タリーズコーヒー",
        "category": "cafe",
        "lat": 35.6845262,
        "lon": 139.7333836
      },
      {
        "id": 1482235003,
        "name": "NON FURNITURE&CAFE",
        "category": "cafe",
        "lat": 36.0628049,
        "lon": 140.122563
      },
      {
        "id": 1482240587,
        "name": "La Flandre",
        "category": "cafe",
        "lat": 36.0630478,
        "lon": 140.1223699
      },
      {
        "id": 1482906583,
        "name": "エクセルシオール カフェ",
        "category": "cafe",
        "lat": 35.682797,
        "lon": 139.770884
      },
      {
        "id": 1483765556,
        "name": "上高地あずさ珈琲 学園前店",
        "category": "cafe",
        "lat": 34.6851411,
        "lon": 135.7547301
      },
      {
        "id": 1484524568,
        "name": "cafe de COCO",
        "category": "cafe",
        "lat": 35.9248388,
        "lon": 139.483201
      },
      {
        "id": 1484533533,
        "name": "VANITOY BAGEL",
        "category": "cafe",
        "lat": 35.9242612,
        "lon": 139.4831289
      },
      {
        "id": 1484537285,
        "name": "エレバート (ELEVATO)",
        "category": "cafe",
        "lat": 35.9213415,
        "lon": 139.482609
      },
      {
        "id": 1484537895,
        "name": "浪漫茶房 右門",
        "category": "cafe",
        "lat": 35.9220349,
        "lon": 139.4826769
      },
      {
        "id": 1484540812,
        "name": "大和屋カフェ",
        "category": "cafe",
        "lat": 35.9235833,
        "lon": 139.4830194
      },
      {
        "id": 1484547289,
        "name": "甘味かすが",
        "category": "cafe",
        "lat": 35.9229131,
        "lon": 139.4829385
      },
      {
        "id": 1485000167,
        "name": "フェアレディ",
        "category": "cafe",
        "lat": 35.6586323,
        "lon": 139.7787261
      },
      {
        "id": 1485260169,
        "name": "郷土ぐるめ開運カフェ",
        "category": "cafe",
        "lat": 35.9220686,
        "lon": 139.4828538
      },
      {
        "id": 1485295780,
        "name": "コーヒー亀之助商店",
        "category": "cafe",
        "lat": 35.9239948,
        "lon": 139.4821789
      },
      {
        "id": 1485295783,
        "name": "陶路子",
        "category": "cafe",
        "lat": 35.9231863,
        "lon": 139.4825769
      },
      {
        "id": 1485493914,
        "name": "EYES CAFE",
        "category": "cafe",
        "lat": 35.6632771,
        "lon": 139.7091411
      },
      {
        "id": 1485976811,
        "name": "ノンノン",
        "category": "cafe",
        "lat": 35.6898451,
        "lon": 139.4276544
      },
      {
        "id": 1486010252,
        "name": "はるり銀花",
        "category": "cafe",
        "lat": 35.9232367,
        "lon": 139.4827053
      },
      {
        "id": 1486010310,
        "name": "青い鳥",
        "category": "cafe",
        "lat": 35.9230341,
        "lon": 139.4827406
      },
      {
        "id": 1490387029,
        "name": "Costa",
        "category": "cafe",
        "lat": 35.5217015,
        "lon": 139.6290036
      },
      {
        "id": 1491248942,
        "name": "スターバックス 静岡呉服町通り店",
        "category": "cafe",
        "lat": 34.9737149,
        "lon": 138.3843912
      },
      {
        "id": 1491276443,
        "name": "Unnamed",
        "category": "cafe",
        "lat": 34.974539,
        "lon": 138.3823666
      },
      {
        "id": 1493220776,
        "name": "ドトールコーヒーショップ",
        "category": "cafe",
        "lat": 35.7049339,
        "lon": 139.6204522
      },
      {
        "id": 1496152583,
        "name": "ケーキプレイス mingyun",
        "category": "cafe",
        "lat": 34.7010046,
        "lon": 135.7328431
      },
      {
        "id": 1496165541,
        "name": "Unnamed",
        "category": "cafe",
        "lat": 34.6798147,
        "lon": 135.831538
      },
      {
        "id": 1497077689,
        "name": "コメダ珈琲店",
        "category": "cafe",
        "lat": 34.7256877,
        "lon": 135.7188519
      },
      {
        "id": 1500004328,
        "name": "gico gico",
        "category": "cafe",
        "lat": 35.7355737,
        "lon": 139.4770574
      },
      {
        "id": 1502259292,
        "name": "スターバックス",
        "category": "cafe",
        "lat": 35.6879473,
        "lon": 139.7002831
      },
      {
        "id": 1506211025,
        "name": "両国テラス",
        "category": "cafe",
        "lat": 35.6958924,
        "lon": 139.7920522
      },
      {
        "id": 1508619393,
        "name": "ろむれざん",
        "category": "cafe",
        "lat": 35.6481197,
        "lon": 139.7447869
      },
      {
        "id": 1508619403,
        "name": "タリーズコーヒー",
        "category": "cafe",
        "lat": 35.6499729,
        "lon": 139.7450255
      },
      {
        "id": 1508619709,
        "name": "カフェ・ベローチェ",
        "category": "cafe",
        "lat": 35.6490782,
        "lon": 139.7449007
      },
      {
        "id": 1509752153,
        "name": "RACCOON",
        "category": "cafe",
        "lat": 35.6564588,
        "lon": 139.7356194
      },
      {
        "id": 1511362567,
        "name": "F.イワモリ (Cafe candle F iwamori )",
        "category": "cafe",
        "lat": 35.7032367,
        "lon": 139.6208432
      },
      {
        "id": 1512817992,
        "name": "ビアンカ",
        "category": "cafe",
        "lat": 35.7001275,
        "lon": 139.4356092
      },
      {
        "id": 1513670514,
        "name": "ドトールコーヒーショップ",
        "category": "cafe",
        "lat": 35.7499138,
        "lon": 139.5863088
      },
      {
        "id": 1515172689,
        "name": "Milieu",
        "category": "cafe",
        "lat": 35.6569628,
        "lon": 139.7391844
      },
      {
        "id": 1515172697,
        "name": "Togu",
        "category": "cafe",
        "lat": 35.656727,
        "lon": 139.738985
      },
      {
        "id": 1519322176,
        "name": "ドトールコーヒーショップ",
        "category": "cafe",
        "lat": 35.4478841,
        "lon": 136.7450515
      },
      {
        "id": 1529767790,
        "name": "喫茶店まりも",
        "category": "cafe",
        "lat": 35.5803635,
        "lon": 139.6634719
      },
      {
        "id": 1536242465,
        "name": "フルーク",
        "category": "cafe",
        "lat": 34.6835157,
        "lon": 135.8288239
      },
      {
        "id": 1536359440,
        "name": "ファミリー喫茶 やま",
        "category": "cafe",
        "lat": 34.9963,
        "lon": 136.9581626
      },
      {
        "id": 1539069065,
        "name": "コーヒーショップ 琥珀",
        "category": "cafe",
        "lat": 35.9865409,
        "lon": 140.4879118
      },
      {
        "id": 1539094010,
        "name": "音楽喫茶　ムジーク",
        "category": "cafe",
        "lat": 35.0311785,
        "lon": 135.7262548
      },
      {
        "id": 1540761788,
        "name": "ドトールコーヒーショップ",
        "category": "cafe",
        "lat": 35.1634999,
        "lon": 136.963425
      },
      {
        "id": 1541947490,
        "name": "ロイズガーデン",
        "category": "cafe",
        "lat": 35.0330951,
        "lon": 135.7277011
      },
      {
        "id": 1541987335,
        "name": "やまねこ軒",
        "category": "cafe",
        "lat": 35.0330994,
        "lon": 135.7214683
      },
      {
        "id": 1542082261,
        "name": "Habour Cafe",
        "category": "cafe",
        "lat": 35.0286298,
        "lon": 135.7312079
      },
      {
        "id": 1544570310,
        "name": "PRONTO",
        "category": "cafe",
        "lat": 35.6884431,
        "lon": 139.6976605
      },
      {
        "id": 1551678186,
        "name": "函館 美鈴",
        "category": "cafe",
        "lat": 35.6820885,
        "lon": 139.6264781
      },
      {
        "id": 1553959229,
        "name": "好茶",
        "category": "cafe",
        "lat": 35.7023539,
        "lon": 139.6360611
      },
      {
        "id": 1558017157,
        "name": "ドトールコーヒーショップ",
        "category": "cafe",
        "lat": 35.6380905,
        "lon": 140.0598234
      },
      {
        "id": 1558819040,
        "name": "SCRAMBLE",
        "category": "cafe",
        "lat": 35.6595614,
        "lon": 139.7011607
      },
      {
        "id": 1558819053,
        "name": "星乃珈琲店",
        "category": "cafe",
        "lat": 35.6597052,
        "lon": 139.7008913
      },
      {
        "id": 1559236951,
        "name": "多夢多夢",
        "category": "cafe",
        "lat": 34.7373883,
        "lon": 135.5370546
      },
      {
        "id": 1563401270,
        "name": "ベリーピック",
        "category": "cafe",
        "lat": 34.9062114,
        "lon": 135.3928581
      },
      {
        "id": 1573337624,
        "name": "BECK'S COFFEE SHOP",
        "category": "cafe",
        "lat": 35.7043994,
        "lon": 139.6190302
      },
      {
        "id": 1580614680,
        "name": "ドトールコーヒーショップ",
        "category": "cafe",
        "lat": 35.6705062,
        "lon": 139.741266
      },
      {
        "id": 1580637955,
        "name": "のぶ",
        "category": "cafe",
        "lat": 35.6716892,
        "lon": 139.7398533
      },
      {
        "id": 1582964680,
        "name": "ドトールコーヒーショップ",
        "category": "cafe",
        "lat": 35.7120933,
        "lon": 139.7792456
      },
      {
        "id": 1583791561,
        "name": "Unnamed",
        "category": "cafe",
        "lat": 35.6446642,
        "lon": 139.6980628
      },
      {
        "id": 1583791573,
        "name": "上島珈琲店",
        "category": "cafe",
        "lat": 35.64554,
        "lon": 139.6973432
      },
      {
        "id": 1585375442,
        "name": "Unnamed",
        "category": "cafe",
        "lat": 35.0321175,
        "lon": 135.7275846
      },
      {
        "id": 1590216000,
        "name": "コーヒーの店 杉",
        "category": "cafe",
        "lat": 35.6985283,
        "lon": 139.784817
      },
      {
        "id": 1592770528,
        "name": "Library Cafe",
        "category": "cafe",
        "lat": 35.701258,
        "lon": 139.5437048
      },
      {
        "id": 1594738668,
        "name": "Hina-Hana Cafe",
        "category": "cafe",
        "lat": 35.6923235,
        "lon": 139.6375577
      },
      {
        "id": 1596093708,
        "name": "TeaRoom けやき",
        "category": "cafe",
        "lat": 35.6943626,
        "lon": 139.641039
      },
      {
        "id": 1596279716,
        "name": "Unnamed",
        "category": "cafe",
        "lat": 35.0316128,
        "lon": 135.7312853
      },
      {
        "id": 1596279717,
        "name": "Unnamed",
        "category": "cafe",
        "lat": 35.0280102,
        "lon": 135.7155618
      },
      {
        "id": 1596279722,
        "name": "ルヴァンクレール",
        "category": "cafe",
        "lat": 35.0316067,
        "lon": 135.7306975
      },
      {
        "id": 1596322348,
        "name": "ドトールコーヒーショップ",
        "category": "cafe",
        "lat": 35.7025545,
        "lon": 139.5430907
      },
      {
        "id": 1599474387,
        "name": "Ami",
        "category": "cafe",
        "lat": 35.651112,
        "lon": 139.6235135
      },
      {
        "id": 1599563989,
        "name": "風月堂",
        "category": "cafe",
        "lat": 35.7040339,
        "lon": 139.66534
      },
      {
        "id": 1599577858,
        "name": "スターバックス",
        "category": "cafe",
        "lat": 35.7068537,
        "lon": 139.6654402
      },
      {
        "id": 1600861324,
        "name": "Select",
        "category": "cafe",
        "lat": 35.4011725,
        "lon": 139.348344
      },
      {
        "id": 1606569385,
        "name": "ドトールコーヒーショップ",
        "category": "cafe",
        "lat": 35.7006527,
        "lon": 139.7424064
      },
      {
        "id": 1613139652,
        "name": "ドトールコーヒーショップ",
        "category": "cafe",
        "lat": 35.6363646,
        "lon": 139.5880135
      },
      {
        "id": 1615677764,
        "name": "バロン",
        "category": "cafe",
        "lat": 35.6437509,
        "lon": 139.551295
      },
      {
        "id": 1615755520,
        "name": "コメダ珈琲店",
        "category": "cafe",
        "lat": 35.2650985,
        "lon": 136.8664553
      },
      {
        "id": 1618249330,
        "name": "Unnamed",
        "category": "cafe",
        "lat": 35.2304593,
        "lon": 136.9466829
      },
      {
        "id": 1619040456,
        "name": "喫茶ひとみ",
        "category": "cafe",
        "lat": 34.6757836,
        "lon": 135.473224
      },
      {
        "id": 1619040467,
        "name": "喫茶カトレヤ",
        "category": "cafe",
        "lat": 34.6764737,
        "lon": 135.4715631
      },
      {
        "id": 1619040470,
        "name": "喫茶四季",
        "category": "cafe",
        "lat": 34.6767014,
        "lon": 135.4713122
      },
      {
        "id": 1619068409,
        "name": "CAFE　リンドバーグ",
        "category": "cafe",
        "lat": 35.2288973,
        "lon": 136.9433832
      },
      {
        "id": 1620281435,
        "name": "ドトールコーヒーショップ",
        "category": "cafe",
        "lat": 35.5387087,
        "lon": 139.6805746
      },
      {
        "id": 1620377303,
        "name": "ひととき家　音桜",
        "category": "cafe",
        "lat": 35.2294419,
        "lon": 136.9447465
      },
      {
        "id": 1621848944,
        "name": "Kiriyama Coffee",
        "category": "cafe",
        "lat": 34.9353107,
        "lon": 135.7608307
      },
      {
        "id": 1621848949,
        "name": "きた家",
        "category": "cafe",
        "lat": 34.9309361,
        "lon": 135.7598736
      },
      {
        "id": 1621849295,
        "name": "伏見夢百衆",
        "category": "cafe",
        "lat": 34.9300162,
        "lon": 135.7614012
      },
      {
        "id": 1622057943,
        "name": "珈琲館 羽村店",
        "category": "cafe",
        "lat": 35.7757708,
        "lon": 139.3055483
      },
      {
        "id": 1623971572,
        "name": "スターバックス",
        "category": "cafe",
        "lat": 35.7080763,
        "lon": 139.7607602
      },
      {
        "id": 1625365705,
        "name": "ドトールコーヒーショップ",
        "category": "cafe",
        "lat": 35.6119742,
        "lon": 139.6008282
      },
      {
        "id": 1629212532,
        "name": "スターバックス",
        "category": "cafe",
        "lat": 35.7047036,
        "lon": 139.6193545
      },
      {
        "id": 1630915042,
        "name": "Cafe'd Captino",
        "category": "cafe",
        "lat": 35.1556284,
        "lon": 136.9280745
      },
      {
        "id": 1632710973,
        "name": "JUSCHE",
        "category": "cafe",
        "lat": 35.6475972,
        "lon": 139.7475078
      },
      {
        "id": 1634099726,
        "name": "TAM TAM",
        "category": "cafe",
        "lat": 35.6956743,
        "lon": 139.7587331
      },
      {
        "id": 1634099739,
        "name": "さぼうる2",
        "category": "cafe",
        "lat": 35.6955716,
        "lon": 139.758563
      },
      {
        "id": 1634099746,
        "name": "さぼうる",
        "category": "cafe",
        "lat": 35.6955733,
        "lon": 139.7586758
      },
      {
        "id": 1635104326,
        "name": "スターバックス",
        "category": "cafe",
        "lat": 35.6942138,
        "lon": 139.7629661
      },
      {
        "id": 1635112897,
        "name": "エクセルシオール カフェ",
        "category": "cafe",
        "lat": 35.6943665,
        "lon": 139.7655667
      },
      {
        "id": 1635233537,
        "name": "BLENZ coffee",
        "category": "cafe",
        "lat": 35.6946376,
        "lon": 139.7661051
      },
      {
        "id": 1635233552,
        "name": "タリーズコーヒー",
        "category": "cafe",
        "lat": 35.6954613,
        "lon": 139.7671551
      },
      {
        "id": 1635233592,
        "name": "ドトールコーヒーショップ",
        "category": "cafe",
        "lat": 35.695158,
        "lon": 139.7676201
      },
      {
        "id": 1635233860,
        "name": "ルノアール",
        "category": "cafe",
        "lat": 35.6949864,
        "lon": 139.7669993
      },
      {
        "id": 1635279964,
        "name": "80's Cafe",
        "category": "cafe",
        "lat": 35.6968096,
        "lon": 139.7693663
      },
      {
        "id": 1636748754,
        "name": "フクスケ",
        "category": "cafe",
        "lat": 34.6758646,
        "lon": 135.4730342
      },
      {
        "id": 1637352985,
        "name": "コメダ珈琲店",
        "category": "cafe",
        "lat": 35.1758581,
        "lon": 137.0145293
      },
      {
        "id": 1637548690,
        "name": "ルノアール",
        "category": "cafe",
        "lat": 35.7067916,
        "lon": 139.6665622
      },
      {
        "id": 1637849025,
        "name": "七番館",
        "category": "cafe",
        "lat": 34.6741438,
        "lon": 135.4761605
      },
      {
        "id": 1637855061,
        "name": "Unnamed",
        "category": "cafe",
        "lat": 35.5434427,
        "lon": 139.5296218
      },
      {
        "id": 1638470437,
        "name": "スターバックス",
        "category": "cafe",
        "lat": 35.6342631,
        "lon": 139.7160394
      },
      {
        "id": 1640515020,
        "name": "DOG CAFE SERGE",
        "category": "cafe",
        "lat": 34.6709025,
        "lon": 135.4884952
      },
      {
        "id": 1641486197,
        "name": "MEeTERRACE",
        "category": "cafe",
        "lat": 35.1603772,
        "lon": 136.9211268
      },
      {
        "id": 1641499673,
        "name": "ロックンダイナー・ポークパイ ハット",
        "category": "cafe",
        "lat": 35.1592841,
        "lon": 136.9183126
      },
      {
        "id": 1641499674,
        "name": "喫茶店　天",
        "category": "cafe",
        "lat": 35.1602299,
        "lon": 136.9171079
      },
      {
        "id": 1645714156,
        "name": "ドトールコーヒーショップ",
        "category": "cafe",
        "lat": 35.1561111,
        "lon": 136.9171338
      },
      {
        "id": 1648219072,
        "name": "スターバックス",
        "category": "cafe",
        "lat": 35.1820969,
        "lon": 137.0215633
      },
      {
        "id": 1648219073,
        "name": "ドトールコーヒーショップ",
        "category": "cafe",
        "lat": 35.1825959,
        "lon": 137.0222446
      },
      {
        "id": 1650406806,
        "name": "喫茶トミー",
        "category": "cafe",
        "lat": 35.4363813,
        "lon": 139.61385
      },
      {
        "id": 1650479451,
        "name": "タリーズコーヒー",
        "category": "cafe",
        "lat": 35.6601017,
        "lon": 139.6960351
      },
      {
        "id": 1650479469,
        "name": "スターバックス",
        "category": "cafe",
        "lat": 35.6603261,
        "lon": 139.6966364
      },
      {
        "id": 1653834733,
        "name": "絵夢",
        "category": "cafe",
        "lat": 35.0706892,
        "lon": 137.7000087
      },
      {
        "id": 1653868631,
        "name": "喫茶木馬",
        "category": "cafe",
        "lat": 35.0712484,
        "lon": 137.7009738
      },
      {
        "id": 1655347114,
        "name": "ちゃちゃカフェ",
        "category": "cafe",
        "lat": 35.0292875,
        "lon": 137.713688
      },
      {
        "id": 1655451157,
        "name": "コーヒーショップ四季",
        "category": "cafe",
        "lat": 35.0251407,
        "lon": 137.7047322
      },
      {
        "id": 1655503929,
        "name": "Cafe Retreat",
        "category": "cafe",
        "lat": 35.6703394,
        "lon": 139.7442789
      },
      {
        "id": 1655503945,
        "name": "swan",
        "category": "cafe",
        "lat": 35.6702717,
        "lon": 139.7449814
      },
      {
        "id": 1655561927,
        "name": "喫茶あすなろ",
        "category": "cafe",
        "lat": 34.9024184,
        "lon": 137.5046573
      },
      {
        "id": 1655778669,
        "name": "喫茶とろーにあ",
        "category": "cafe",
        "lat": 34.8174485,
        "lon": 137.387896
      },
      {
        "id": 1656807475,
        "name": "PRONTO",
        "category": "cafe",
        "lat": 35.667334,
        "lon": 139.757236
      },
      {
        "id": 1656807582,
        "name": "驛舎珈琲店",
        "category": "cafe",
        "lat": 35.6673494,
        "lon": 139.7571847
      },
      {
        "id": 1656858990,
        "name": "エクセルシオール カフェ",
        "category": "cafe",
        "lat": 35.6680267,
        "lon": 139.7560503
      },
      {
        "id": 1656978588,
        "name": "タリーズコーヒー",
        "category": "cafe",
        "lat": 35.6705289,
        "lon": 139.7421136
      },
      {
        "id": 1657287374,
        "name": "miami villa",
        "category": "cafe",
        "lat": 35.6591579,
        "lon": 139.6987844
      },
      {
        "id": 1657287416,
        "name": "キーフェル",
        "category": "cafe",
        "lat": 35.6592134,
        "lon": 139.6989601
      },
      {
        "id": 1657347828,
        "name": "cafe cafe",
        "category": "cafe",
        "lat": 35.6578405,
        "lon": 139.6912391
      },
      {
        "id": 1658573955,
        "name": "ドトールコーヒーショップ",
        "category": "cafe",
        "lat": 35.6687879,
        "lon": 139.6500533
      },
      {
        "id": 1660144390,
        "name": "キッサ桧",
        "category": "cafe",
        "lat": 35.0984931,
        "lon": 137.5729672
      },
      {
        "id": 1662283990,
        "name": "スカイビューカフェ",
        "category": "cafe",
        "lat": 34.4407833,
        "lon": 135.2581125
      },
      {
        "id": 1667251840,
        "name": "ドトールコーヒーショップ",
        "category": "cafe",
        "lat": 35.5916953,
        "lon": 139.6809419
      },
      {
        "id": 1667933673,
        "name": "ドトールコーヒーショップ",
        "category": "cafe",
        "lat": 35.6461971,
        "lon": 139.7470967
      },
      {
        "id": 1668060614,
        "name": "スターバックス",
        "category": "cafe",
        "lat": 36.109187,
        "lon": 140.1017477
      },
      {
        "id": 1668206928,
        "name": "スターバックス",
        "category": "cafe",
        "lat": 35.7012275,
        "lon": 139.544916
      },
      {
        "id": 1668223721,
        "name": "スターバックス",
        "category": "cafe",
        "lat": 34.9683369,
        "lon": 136.6169345
      },
      {
        "id": 1668368582,
        "name": "Unnamed",
        "category": "cafe",
        "lat": 36.3322702,
        "lon": 137.2979046
      },
      {
        "id": 1668368592,
        "name": "Unnamed",
        "category": "cafe",
        "lat": 36.3329401,
        "lon": 137.2968852
      },
      {
        "id": 1668435864,
        "name": "上島珈琲店",
        "category": "cafe",
        "lat": 35.656693,
        "lon": 139.7542923
      },
      {
        "id": 1668457378,
        "name": "タリーズコーヒー",
        "category": "cafe",
        "lat": 35.6562919,
        "lon": 139.7524701
      },
      {
        "id": 1668457986,
        "name": "粉とクリーム ベーカリー&カフェ つくばキャンパス第3エリア店",
        "category": "cafe",
        "lat": 36.1103233,
        "lon": 140.1009355
      },
      {
        "id": 1668484898,
        "name": "スターバックス",
        "category": "cafe",
        "lat": 35.6685256,
        "lon": 139.7466267
      },
      {
        "id": 1669560918,
        "name": "下北沢オープンソース Cafe",
        "category": "cafe",
        "lat": 35.6655408,
        "lon": 139.6634111
      },
      {
        "id": 1669670208,
        "name": "サンマルクカフェ",
        "category": "cafe",
        "lat": 35.6614789,
        "lon": 139.6980254
      },
      {
        "id": 1669670230,
        "name": "マンボー",
        "category": "cafe",
        "lat": 35.6617474,
        "lon": 139.6979233
      },
      {
        "id": 1669745921,
        "name": "PRONTO",
        "category": "cafe",
        "lat": 35.6607608,
        "lon": 139.6994304
      },
      {
        "id": 1669745978,
        "name": "グランサイバーカフェ",
        "category": "cafe",
        "lat": 35.6606086,
        "lon": 139.6979199
      },
      {
        "id": 1669745981,
        "name": "ドトールコーヒーショップ",
        "category": "cafe",
        "lat": 35.6602538,
        "lon": 139.6983804
      },
      {
        "id": 1669746035,
        "name": "椿屋カフェ",
        "category": "cafe",
        "lat": 35.6603346,
        "lon": 139.699108
      },
      {
        "id": 1669815876,
        "name": "きゃりこ",
        "category": "cafe",
        "lat": 35.7026499,
        "lon": 139.579196
      },
      {
        "id": 1671325491,
        "name": "モボモガ",
        "category": "cafe",
        "lat": 35.6625166,
        "lon": 139.697633
      },
      {
        "id": 1671325494,
        "name": "139 A Carte Dinner",
        "category": "cafe",
        "lat": 35.6625415,
        "lon": 139.6974535
      },
      {
        "id": 1671336087,
        "name": "Muse",
        "category": "cafe",
        "lat": 35.6626688,
        "lon": 139.6973071
      },
      {
        "id": 1671466672,
        "name": "すいーと",
        "category": "cafe",
        "lat": 34.9113252,
        "lon": 135.6989842
      },
      {
        "id": 1671519111,
        "name": "ドトールコーヒーショップ",
        "category": "cafe",
        "lat": 35.5329555,
        "lon": 139.4354466
      },
      {
        "id": 1673403738,
        "name": "Kahemi cafe",
        "category": "cafe",
        "lat": 35.6636525,
        "lon": 139.6987574
      },
      {
        "id": 1673403739,
        "name": "Kawara Cafe",
        "category": "cafe",
        "lat": 35.6636301,
        "lon": 139.6993245
      },
      {
        "id": 1673403812,
        "name": "Miyama",
        "category": "cafe",
        "lat": 35.6616386,
        "lon": 139.6996287
      },
      {
        "id": 1673403826,
        "name": "Regan",
        "category": "cafe",
        "lat": 35.6628737,
        "lon": 139.6972105
      },
      {
        "id": 1673403840,
        "name": "shiroichi",
        "category": "cafe",
        "lat": 35.6641723,
        "lon": 139.6991507
      },
      {
        "id": 1673403842,
        "name": "smile",
        "category": "cafe",
        "lat": 35.6626172,
        "lon": 139.6972008
      },
      {
        "id": 1673403882,
        "name": "エクセルシオール カフェ",
        "category": "cafe",
        "lat": 35.6621973,
        "lon": 139.6995238
      },
      {
        "id": 1673403889,
        "name": "サンマルクカフェ",
        "category": "cafe",
        "lat": 35.6635476,
        "lon": 139.6989761
      },
      {
        "id": 1673403895,
        "name": "スターバックス",
        "category": "cafe",
        "lat": 35.6640377,
        "lon": 139.6991843
      },
      {
        "id": 1674111751,
        "name": "喫茶レオ",
        "category": "cafe",
        "lat": 35.7751766,
        "lon": 137.6974035
      },
      {
        "id": 1674111755,
        "name": "かふぇりか",
        "category": "cafe",
        "lat": 35.7840025,
        "lon": 137.6944101
      },
      {
        "id": 1674139616,
        "name": "CAFE DU MON",
        "category": "cafe",
        "lat": 35.0424339,
        "lon": 135.7473998
      },
      {
        "id": 1674228877,
        "name": "cafe流れ星",
        "category": "cafe",
        "lat": 35.7769605,
        "lon": 137.6375684
      },
      {
        "id": 1674564723,
        "name": "ドトールコーヒーショップ",
        "category": "cafe",
        "lat": 35.6296549,
        "lon": 139.5495775
      },
      {
        "id": 1675508434,
        "name": "スターバックス",
        "category": "cafe",
        "lat": 35.6000719,
        "lon": 139.3796053
      },
      {
        "id": 1676296259,
        "name": "ブルーコーナー",
        "category": "cafe",
        "lat": 35.5430536,
        "lon": 139.7898657
      },
      {
        "id": 1676649137,
        "name": "Le Cafe Retro",
        "category": "cafe",
        "lat": 35.706538,
        "lon": 139.7176026
      },
      {
        "id": 1676882641,
        "name": "ドトールコーヒーショップ",
        "category": "cafe",
        "lat": 35.6337373,
        "lon": 139.5329695
      },
      {
        "id": 1678901681,
        "name": "喫茶 みよし",
        "category": "cafe",
        "lat": 35.644565,
        "lon": 139.537317
      },
      {
        "id": 1678983447,
        "name": "銀座コージーコーナー",
        "category": "cafe",
        "lat": 35.6462964,
        "lon": 139.7465072
      },
      {
        "id": 1679691722,
        "name": "タリーズコーヒー",
        "category": "cafe",
        "lat": 35.5305926,
        "lon": 139.6974846
      },
      {
        "id": 1681138804,
        "name": "Shitara　JUNK Cafe",
        "category": "cafe",
        "lat": 35.1615681,
        "lon": 137.5376077
      },
      {
        "id": 1681471883,
        "name": "フォレスト",
        "category": "cafe",
        "lat": 35.6720343,
        "lon": 139.6017763
      },
      {
        "id": 1681496619,
        "name": "Freeman Cafe",
        "category": "cafe",
        "lat": 35.6613772,
        "lon": 139.7027242
      },
      {
        "id": 1681496798,
        "name": "ルノアール",
        "category": "cafe",
        "lat": 35.6613618,
        "lon": 139.7026411
      },
      {
        "id": 1681588641,
        "name": "ちくちく",
        "category": "cafe",
        "lat": 35.6599468,
        "lon": 139.7037449
      },
      {
        "id": 1681588642,
        "name": "エクセルシオール",
        "category": "cafe",
        "lat": 35.6597795,
        "lon": 139.7029981
      },
      {
        "id": 1681588648,
        "name": "ドトールコーヒーショップ",
        "category": "cafe",
        "lat": 35.6601863,
        "lon": 139.7026241
      },
      {
        "id": 1681588707,
        "name": "集",
        "category": "cafe",
        "lat": 35.6598644,
        "lon": 139.7033865
      },
      {
        "id": 1682557976,
        "name": "ドトールコーヒーショップ",
        "category": "cafe",
        "lat": 35.5812092,
        "lon": 139.3705363
      },
      {
        "id": 1682838046,
        "name": "MOSCO",
        "category": "cafe",
        "lat": 35.7773208,
        "lon": 139.6326618
      },
      {
        "id": 1686451383,
        "name": "ルノアール",
        "category": "cafe",
        "lat": 35.6914213,
        "lon": 139.7075234
      },
      {
        "id": 1687133944,
        "name": "Fuzimi",
        "category": "cafe",
        "lat": 35.5809094,
        "lon": 139.6615887
      },
      {
        "id": 1690115611,
        "name": "コメダ珈琲店",
        "category": "cafe",
        "lat": 35.5280701,
        "lon": 139.4969488
      },